Message Id[unsigned short|#],Timestamp[unsigned long|epoch],Latitude[double|°],Longitude[double|°],Mission Time[unsigned long|tod],Depth[float|Meters],Heading[float|°],Pitch[float|°],Roll[float|°],Altitude[float|Meters],Altitude Track Range Beam 1[float|Meters],Altitude Track Range Beam 2[float|Meters],Altitude Track Range Beam 3[float|Meters],Altitude Track Range Beam 4[float|Meters],Forward Velocity[float|m/s],Starboard Velocity[float|m/s],Vertical Velocity[float|m/s],Error Velocity[float|mm/s],Temperature[float|°C],Ensemble[unsigned short|#],Binary Velocity Data 1[short|mm/s],Binary Velocity Data 2[short|mm/s],Binary Velocity Data 3[short|mm/s],Binary Velocity Data 4[short|mm/s],Coordinates Transformation[short|mask],Average Current[float|m/s],Average Direction[float|°]
1141,1509661501,39.9255,-70.9009,80701183,0.16,189.73,3.21,2.29,0.00,0.00,0.00,0.00,0.00,-32.77,-32.77,-32.77,-32.77,21.23,296,129,-169,-179,-30,23,0.00,0.00
1141,1509661502,39.9255,-70.9009,80702483,0.21,187.91,-0.31,-3.76,0.00,0.00,0.00,0.00,0.00,-32.77,-32.77,-32.77,-32.77,21.28,297,-382,250,78,326,-32745,0.00,0.00
1141,1509661503,39.9255,-70.9009,80703733,0.17,192.15,-2.61,3.40,0.00,0.00,0.00,0.00,0.00,-32.77,-32.77,-32.77,-32.77,21.22,298,-78,-187,-92,27,23,0.00,0.00
1141,1509661505,39.9255,-70.9009,80705049,0.14,193.92,0.63,7.07,0.00,0.00,0.00,0.00,0.00,-32.77,-32.77,-32.77,-32.77,21.27,299,607,80,97,-331,-32745,0.00,0.00
1141,1509661506,39.9255,-70.9009,80706299,0.15,189.84,2.50,-1.35,0.00,0.00,0.00,0.00,0.00,-32.77,-32.77,-32.77,-32.77,21.22,300,-105,-40,49,75,23,0.00,0.00
1141,1509661507,39.9255,-70.9009,80707616,0.24,193.13,-3.50,-0.07,0.00,0.00,0.00,0.00,0.00,-32.77,-32.77,-32.77,-32.77,21.27,301,258,20,-526,-152,-32745,0.00,0.00
1141,1509661508,39.9255,-70.9009,80708933,0.15,194.07,0.58,3.73,0.00,0.00,0.00,0.00,0.00,-32.77,-32.77,-32.77,-32.77,21.22,302,123,-311,-80,42,23,0.00,0.00
1141,1509661510,39.9255,-70.9009,80710183,0.15,190.83,1.18,-0.64,0.00,0.00,0.00,0.00,0.00,-32.77,-32.77,-32.77,-32.77,21.25,303,42,-77,213,-258,-32745,0.00,0.00
1141,1509661511,39.9255,-70.9009,80711483,0.16,192.47,-4.03,6.51,0.00,0.00,0.00,0.00,0.00,-32.77,-32.77,-32.77,-32.77,21.24,304,-3,-62,56,52,23,0.00,0.00
1141,1509661512,39.9256,-70.9010,80712733,0.03,189.36,0.97,-8.78,0.00,0.00,0.00,0.00,0.00,-32.77,-32.77,-32.77,-32.77,21.27,305,-208,372,-128,30,-32745,0.00,0.00
1141,1509661514,39.9256,-70.9010,80714049,0.22,190.56,0.19,5.56,0.00,0.00,0.00,0.00,0.00,-32.77,-32.77,-32.77,-32.77,21.26,306,247,18,-3,18,23,0.00,0.00
1141,1509661515,39.9256,-70.9010,80715299,0.12,190.69,0.49,0.74,0.00,0.00,0.00,0.00,0.00,-32.77,-32.77,-32.77,-32.77,21.25,307,99,484,-233,-80,-32745,0.00,0.00
1141,1509661516,39.9256,-70.9010,80716616,0.13,195.65,-2.34,4.39,0.00,0.00,0.00,0.00,0.00,-32.77,-32.77,-32.77,-32.77,21.19,308,-175,-209,-87,30,23,0.00,0.00
1141,1509661517,39.9256,-70.9010,80717866,0.05,188.63,1.03,-8.43,0.00,0.00,0.00,0.00,0.00,-32.77,-32.77,-32.77,-32.77,21.23,309,45,-200,-357,-223,-32745,0.00,0.00
1141,1509661519,39.9256,-70.9010,80719183,0.23,192.45,0.28,6.97,0.00,0.00,0.00,0.00,0.00,-32.77,-32.77,-32.77,-32.77,21.23,310,291,-13,-115,-133,23,0.00,0.00
1141,1509661520,39.9256,-70.9010,80720483,-0.04,188.88,-2.65,5.77,0.00,0.00,0.00,0.00,0.00,-32.77,-32.77,-32.77,-32.77,21.24,311,-123,214,-157,116,-32745,0.00,0.00
1141,1509661521,39.9256,-70.9010,80721733,0.13,191.81,0.64,-1.86,0.00,0.00,0.00,0.00,0.00,-32.77,-32.77,-32.77,-32.77,21.24,312,-129,100,53,-30,23,0.00,0.00
1141,1509661523,39.9256,-70.9010,80723049,-0.00,195.72,-0.69,1.55,0.00,0.00,0.00,0.00,0.00,-32.77,-32.77,-32.77,-32.77,21.24,313,200,104,-95,-58,-32745,0.00,0.00
1141,1509661524,39.9256,-70.9010,80724299,0.01,190.44,-1.43,0.65,0.00,0.00,0.00,0.00,0.00,-32.77,-32.77,-32.77,-32.77,21.18,314,448,95,22,-32768,23,0.00,0.00
1141,1509661525,39.9255,-70.9010,80725616,0.10,191.35,-0.70,-3.14,0.00,0.00,0.00,0.00,0.00,-32.77,-32.77,-32.77,-32.77,21.21,315,-474,20,439,173,-32745,0.00,0.00
1141,1509661526,39.9255,-70.9010,80726866,0.01,191.77,-3.07,-7.35,0.00,0.00,0.00,0.00,0.00,-32.77,-32.77,-32.77,-32.77,21.19,316,174,195,12,-20,23,0.00,0.00
1141,1509661528,39.9255,-70.9010,80728183,0.04,190.90,1.64,-3.99,0.00,0.00,0.00,0.00,0.00,-32.77,-32.77,-32.77,-32.77,21.23,317,122,640,-403,59,-32745,0.00,0.00
1141,1509661529,39.9255,-70.9010,80729433,0.07,189.01,3.21,-2.10,0.00,0.00,0.00,0.00,0.00,-32.77,-32.77,-32.77,-32.77,21.21,318,172,889,156,8,23,0.00,0.00
1141,1509661530,39.9255,-70.9010,80730733,0.02,189.48,-2.92,2.04,0.00,0.00,0.00,0.00,0.00,-32.77,-32.77,-32.77,-32.77,21.23,319,-208,768,-10,62,-32745,0.00,0.00
1141,1509661531,39.9254,-70.9010,80731983,-0.03,178.74,0.12,-12.55,0.00,0.00,0.00,0.00,0.00,-32.77,-32.77,-32.77,-32.77,21.19,320,-157,1103,-139,206,23,0.00,0.00
Message Id[unsigned short|#],Timestamp[unsigned long|epoch],Latitude[double|°],Longitude[double|°],Mission Time[unsigned long|tod],Depth[float|Meters],Sensor Voltage[float|V],Temperature[float|°C],Supply Voltage[float|V]
1173,1509661501,39.9255,-70.9009,80701183,0.16,0.05,20.62,11.82
1173,1509661501,39.9255,-70.9009,80701299,0.17,0.04,20.62,11.68
1173,1509661501,39.9255,-70.9009,80701366,0.17,0.04,20.62,11.82
1173,1509661501,39.9255,-70.9009,80701483,0.17,0.05,20.62,11.82
1173,1509661501,39.9255,-70.9009,80701616,0.19,0.04,20.62,11.68
1173,1509661501,39.9255,-70.9009,80701733,0.19,0.05,20.62,11.57
1173,1509661501,39.9255,-70.9009,80701866,0.25,0.07,20.62,11.57
1173,1509661501,39.9255,-70.9009,80701983,0.25,0.08,20.62,11.70
1173,1509661502,39.9255,-70.9009,80702049,0.25,0.07,20.62,11.70
1173,1509661502,39.9255,-70.9009,80702183,0.27,0.07,20.62,11.70
1173,1509661502,39.9255,-70.9009,80702299,0.27,0.06,20.62,11.70
1173,1509661502,39.9255,-70.9009,80702433,0.21,0.06,20.62,11.80
1173,1509661502,39.9255,-70.9009,80702549,0.21,0.05,20.62,11.72
1173,1509661502,39.9255,-70.9009,80702683,0.16,0.06,20.62,11.70
1173,1509661502,39.9255,-70.9009,80702733,0.16,0.05,20.62,11.68
1173,1509661502,39.9255,-70.9009,80702866,0.14,0.05,20.62,11.72
1173,1509661502,39.9255,-70.9009,80702983,0.14,0.06,20.62,11.70
1173,1509661503,39.9255,-70.9009,80703116,0.16,0.07,20.62,11.68
1173,1509661503,39.9255,-70.9009,80703233,0.16,0.06,20.62,11.72
1173,1509661503,39.9255,-70.9009,80703299,0.16,0.07,20.62,11.72
1173,1509661503,39.9255,-70.9009,80703433,0.18,0.07,20.62,11.72
1173,1509661503,39.9255,-70.9009,80703549,0.18,0.07,20.62,11.65
1173,1509661503,39.9255,-70.9009,80703683,0.17,0.05,20.62,11.72
1173,1509661503,39.9255,-70.9009,80703799,0.17,0.06,20.62,11.63
1173,1509661503,39.9255,-70.9009,80703933,0.16,0.05,20.62,11.70
Message Id[unsigned short|#],Timestamp[unsigned long|epoch],Voltage[float|V],Status[unsigned short|mask],Descent Status[signed char|#],Ascent Status[signed char|#],Pickup Status[signed char|#],Descent Continuity[unsigned char|#],Ascent Continuity[unsigned char|#],Pickup Continuity[unsigned char|#],Secondary Status[unsigned long|mask]
1076,1509661504,15.71,0,0,0,0,128,128,128,3846
1076,1509661509,15.71,0,0,0,0,128,128,128,3846
1076,1509661514,15.70,0,0,0,0,128,128,128,3846
1076,1509661519,15.71,0,0,0,0,128,128,128,3846
1076,1509661524,15.72,0,0,0,0,128,128,128,3846
1076,1509661529,15.69,0,0,0,0,128,128,128,3846
1076,1509661534,15.71,0,0,0,0,128,128,128,3846
1076,1509661539,15.70,0,0,0,0,128,128,128,3846
1076,1509661544,15.72,0,0,0,0,128,128,128,3846
1076,1509661549,15.68,0,0,0,0,128,128,128,3846
1076,1509661554,15.68,0,0,0,0,128,128,128,1798
1076,1509661559,15.73,0,0,0,0,128,128,128,1798
1076,1509661564,15.71,0,0,0,0,128,128,128,1798
1076,1509661569,15.69,0,0,0,0,128,128,128,1798
1076,1509661574,15.71,0,0,0,0,128,128,128,1798
1076,1509661579,15.69,0,0,0,0,128,128,128,1798
1076,1509661584,15.73,0,0,0,0,128,128,128,1798
1076,1509661589,15.70,0,0,0,0,128,128,128,1798
1076,1509661594,15.71,0,0,0,0,128,128,128,1798
1076,1509661599,15.71,0,0,0,0,128,128,128,1798
1076,1509661604,15.72,0,0,0,0,128,128,128,1798
1076,1509661609,15.71,0,0,0,0,128,128,128,1798
1076,1509661614,15.70,0,0,0,0,128,128,128,1798
1076,1509661619,15.68,0,0,0,0,128,128,128,1798
1076,1509661624,15.71,0,0,0,0,128,128,128,1798
Message Id[unsigned short|#],Filename[signed char(13)|ascii],Line[short|#],Timestamp[unsigned long|epoch],Message[signed char(200)|ascii]
1001,"selftest.cpp",1238,1509661526,"Vehicle stuck on surface; attempting to drive it down"
1001,"/mot_tri.cpp",515,1509661527,"Thruster is current limiting (1)"
1001,"/mot_tri.cpp",515,1509661529,"Thruster is current limiting (32)"
1001,"/mot_tri.cpp",515,1509661531,"Thruster is current limiting (55)"
1001,"/mot_tri.cpp",515,1509661532,"Thruster is current limiting (64)"
1001,"/mot_tri.cpp",515,1509661534,"Thruster is current limiting (96)"
1001,"/mot_tri.cpp",515,1509661536,"Thruster is current limiting (128)"
1001,"/mot_tri.cpp",515,1509661538,"Thruster is current limiting (135)"
1001,"/mot_tri.cpp",515,1509661540,"Thruster is current limiting (160)"
1001,"/mot_tri.cpp",515,1509661541,"Thruster is current limiting (162)"
1001,"/mot_tri.cpp",515,1509661542,"Thruster is current limiting (188)"
1001,"/mot_tri.cpp",515,1509661543,"Thruster is current limiting (192)"
1001,"/mot_tri.cpp",515,1509661549,"Thruster is current limiting (214)"
1001,"/mot_tri.cpp",515,1509661550,"Thruster is current limiting (224)"
1001,"/mot_tri.cpp",515,1509661552,"Thruster is current limiting (256)"
1001,"/mot_tri.cpp",515,1509661554,"Thruster is current limiting (288)"
1001,"/mot_tri.cpp",515,1509661554,"Thruster is current limiting (293)"
1001,"/mot_tri.cpp",515,1509661556,"Thruster is current limiting (320)"
1001,"/mot_tri.cpp",515,1509661558,"Thruster is current limiting (352)"
1001,"/mot_tri.cpp",515,1509661559,"Thruster is current limiting (373)"
1001,"/mot_tri.cpp",515,1509661560,"Thruster is current limiting (384)"
1001,"/mot_tri.cpp",515,1509661561,"Thruster is current limiting (399)"
1001,"/mot_tri.cpp",515,1509661562,"Thruster is current limiting (416)"
1001,"/mot_tri.cpp",515,1509661563,"Thruster is current limiting (425)"
1001,"/mot_tri.cpp",515,1509661564,"Thruster is current limiting (448)"
Message Id[unsigned short|#],Timestamp[unsigned long|epoch],Latitude[double|°],Longitude[double|°],Heading[float|°],Fix Age[short|secs],Flags[signed char|mask],GPS Fix Status[signed char|mask],Satellites In View[signed char|#],Satellites Used[signed char|#],Speed Over Ground[float|m/s],Course Over Ground[float|m/s],Position Error[float|dop],Horizontal Error[float|dop],Veritical Error[float|dop],Year[signed char|#],Month[signed char|#],Day[signed char|#],Hour[signed char|#],Minute[signed char|#],Second[signed char|#],Fix Status[short|mask],Satellite Data 1 Space Vehicle Id[signed char|#],Satellite Data 1 Elevation[signed char|°],Satellite Data 1 Azimuth[short|°],Satellite Data 1 Signal-Noise-Ratio[signed char|#],Satellite Data 1 Flags[signed char|mask],Satellite Data 2 Space Vehicle Id[signed char|#],Satellite Data 2 Elevation[signed char|°],Satellite Data 2 Azimuth[short|°],Satellite Data 2 Signal-Noise-Ratio[signed char|#],Satellite Data 2 Flags[signed char|mask],Satellite Data 3 Space Vehicle Id[signed char|#],Satellite Data 3 Elevation[signed char|°],Satellite Data 3 Azimuth[short|°],Satellite Data 3 Signal-Noise-Ratio[signed char|#],Satellite Data 3 Flags[signed char|mask],Satellite Data 4 Space Vehicle Id[signed char|#],Satellite Data 4 Elevation[signed char|°],Satellite Data 4 Azimuth[short|°],Satellite Data 4 Signal-Noise-Ratio[signed char|#],Satellite Data 4 Flags[signed char|mask],Satellite Data 5 Space Vehicle Id[signed char|#],Satellite Data 5 Elevation[signed char|°],Satellite Data 5 Azimuth[short|°],Satellite Data 5 Signal-Noise-Ratio[signed char|#],Satellite Data 5 Flags[signed char|mask],Satellite Data 6 Space Vehicle Id[signed char|#],Satellite Data 6 Elevation[signed char|°],Satellite Data 6 Azimuth[short|°],Satellite Data 6 Signal-Noise-Ratio[signed char|#],Satellite Data 6 Flags[signed char|mask],Satellite Data 7 Space Vehicle Id[signed char|#],Satellite Data 7 Elevation[signed char|°],Satellite Data 7 Azimuth[short|°],Satellite Data 7 Signal-Noise-Ratio[signed char|#],Satellite Data 7 Flags[signed char|mask],Satellite Data 8 Space Vehicle Id[signed char|#],Satellite Data 8 Elevation[signed char|°],Satellite Data 8 Azimuth[short|°],Satellite Data 8 Signal-Noise-Ratio[signed char|#],Satellite Data 8 Flags[signed char|mask],Satellite Data 9 Space Vehicle Id[signed char|#],Satellite Data 9 Elevation[signed char|°],Satellite Data 9 Azimuth[short|°],Satellite Data 9 Signal-Noise-Ratio[signed char|#],Satellite Data 9 Flags[signed char|mask],Satellite Data 10 Space Vehicle Id[signed char|#],Satellite Data 10 Elevation[signed char|°],Satellite Data 10 Azimuth[short|°],Satellite Data 10 Signal-Noise-Ratio[signed char|#],Satellite Data 10 Flags[signed char|mask],Satellite Data 11 Space Vehicle Id[signed char|#],Satellite Data 11 Elevation[signed char|°],Satellite Data 11 Azimuth[short|°],Satellite Data 11 Signal-Noise-Ratio[signed char|#],Satellite Data 11 Flags[signed char|mask],Satellite Data 12 Space Vehicle Id[signed char|#],Satellite Data 12 Elevation[signed char|°],Satellite Data 12 Azimuth[short|°],Satellite Data 12 Signal-Noise-Ratio[signed char|#],Satellite Data 12 Flags[signed char|mask]
1055,1509661501,39.9255,-70.9009,191.36,0,11,0,11,8,0.72,276.20,1.30,1.00,0.90,17,11,2,22,25,1,10,1,3,330,21,0,10,84,216,42,1,12,35,90,41,1,14,38,287,35,1,15,3,92,35,0,18,55,152,39,1,21,3,187,37,0,24,31,49,39,1,25,33,137,35,1,31,18,224,43,1,32,54,303,41,1,0,0,0,0,0
1055,1509661502,39.9255,-70.9009,187.96,1,11,0,11,8,0.31,311.20,1.30,1.00,0.90,17,11,2,22,25,2,10,1,3,330,19,0,10,84,216,42,1,12,35,90,40,1,14,38,287,35,1,15,3,92,33,0,18,55,152,38,1,21,3,187,20,0,24,31,49,38,1,25,33,137,35,1,31,18,224,43,1,32,54,303,41,1,0,0,0,0,0
1055,1509661503,39.9255,-70.9009,192.26,2,11,0,11,8,0.51,345.40,1.30,1.00,0.90,17,11,2,22,25,3,10,1,3,330,18,0,10,84,216,41,1,12,35,90,40,1,14,38,287,34,1,15,3,92,32,0,18,55,152,38,1,21,3,187,21,0,24,31,49,39,1,25,33,137,34,1,31,18,224,43,1,32,54,303,41,1,0,0,0,0,0
1055,1509661504,39.9255,-70.9009,188.82,3,11,0,11,8,0.57,319.90,2.10,1.00,1.80,17,11,2,22,25,4,10,1,3,330,19,0,10,84,216,41,1,12,35,90,40,1,14,38,287,35,1,15,3,92,31,0,18,55,152,39,1,21,3,187,22,0,24,31,49,39,1,25,33,137,34,1,31,18,224,43,1,32,54,303,41,1,0,0,0,0,0
1055,1509661505,39.9256,-70.9009,193.92,4,11,0,11,8,0.41,310.60,1.30,1.00,0.90,17,11,2,22,25,5,10,1,3,330,18,0,10,84,216,41,1,12,35,90,40,1,14,38,287,36,1,15,3,92,32,0,18,55,152,40,1,21,3,187,33,0,24,31,49,38,1,25,33,137,34,1,31,18,224,42,1,32,54,303,40,1,0,0,0,0,0
1055,1509661506,39.9256,-70.9009,192.13,5,11,0,11,8,0.51,276.90,1.30,1.00,0.90,17,11,2,22,25,6,10,1,3,330,18,0,10,84,216,41,1,12,35,90,40,1,14,38,287,37,1,15,3,92,32,0,18,55,152,40,1,21,3,187,31,0,24,31,49,37,1,25,33,137,34,1,31,18,224,42,1,32,54,303,40,1,0,0,0,0,0
1055,1509661507,39.9256,-70.9009,193.13,6,11,0,11,8,0.41,356.40,1.30,1.00,0.90,17,11,2,22,25,7,10,1,3,330,18,0,10,84,216,41,1,12,35,90,40,1,14,38,287,37,1,15,3,92,31,0,18,55,152,39,1,21,3,187,19,0,24,31,49,37,1,25,33,137,34,1,31,18,224,42,1,32,54,303,39,1,0,0,0,0,0
1055,1509661508,39.9256,-70.9009,193.11,7,11,0,11,8,0.31,273.30,2.10,1.00,1.80,17,11,2,22,25,8,10,1,3,330,25,0,10,84,216,41,1,12,35,90,40,1,14,38,287,36,1,15,3,92,30,0,18,55,152,39,1,21,3,187,30,0,24,31,49,38,1,25,33,137,35,1,31,18,224,42,1,32,54,303,39,1,0,0,0,0,0
1055,1509661509,39.9256,-70.9010,190.36,8,11,0,11,8,0.57,264.60,1.30,1.00,0.90,17,11,2,22,25,9,10,1,3,330,25,0,10,84,216,41,1,12,35,90,41,1,14,38,287,34,1,15,3,92,31,0,18,55,152,39,1,21,3,187,30,0,24,31,49,39,1,25,33,137,35,1,31,18,224,42,1,32,54,303,40,1,0,0,0,0,0
1055,1509661510,39.9256,-70.9010,191.95,9,11,0,11,8,0.51,277.60,1.30,1.00,0.90,17,11,2,22,25,10,10,1,3,330,24,0,10,84,216,41,1,12,35,90,40,1,14,38,287,35,1,15,3,92,32,0,18,55,152,39,1,21,3,187,28,0,24,31,49,39,1,25,33,137,35,1,31,18,224,42,1,32,54,303,41,1,0,0,0,0,0
1055,1509661511,39.9256,-70.9010,192.15,10,11,0,11,8,0.31,324.00,1.30,1.00,0.90,17,11,2,22,25,11,10,1,3,330,22,0,10,84,216,41,1,12,35,90,41,1,14,38,287,35,1,15,3,92,31,0,18,55,152,39,1,21,3,187,26,0,24,31,49,40,1,25,33,137,35,1,31,18,224,42,1,32,54,303,41,1,0,0,0,0,0
1055,1509661512,39.9256,-70.9010,189.17,0,11,0,11,8,0.67,323.20,1.30,1.00,0.90,17,11,2,22,25,12,0,1,3,330,22,0,10,84,216,41,1,12,35,90,40,1,14,38,287,35,1,15,3,92,30,0,18,55,152,40,1,21,3,187,28,0,24,31,49,40,1,25,33,137,35,1,31,18,224,41,1,32,54,303,41,1,0,0,0,0,0
1055,1509661513,39.9256,-70.9010,191.73,0,11,0,11,8,0.51,297.20,1.30,1.00,0.90,17,11,2,22,25,13,0,1,3,330,22,0,10,84,216,41,1,12,35,90,41,1,14,38,287,36,1,15,3,92,32,0,18,55,152,40,1,21,3,187,30,0,24,31,49,40,1,25,33,137,35,1,31,18,224,41,1,32,54,303,42,1,0,0,0,0,0
1055,1509661514,39.9256,-70.9010,190.21,0,11,0,11,8,0.41,296.00,1.30,1.00,0.90,17,11,2,22,25,14,0,1,3,330,20,0,10,84,216,41,1,12,35,90,41,1,14,38,287,37,1,15,3,92,32,0,18,55,152,39,1,21,3,187,29,0,24,31,49,40,1,25,33,137,36,1,31,18,224,42,1,32,54,303,42,1,0,0,0,0,0
1055,1509661515,39.9256,-70.9010,190.79,0,11,0,11,8,0.41,349.90,1.30,1.00,0.90,17,11,2,22,25,15,0,1,3,330,20,0,10,84,216,40,1,12,35,90,40,1,14,38,287,37,1,15,3,92,24,0,18,55,152,38,1,21,3,187,22,0,24,31,49,40,1,25,33,137,36,1,31,18,224,42,1,32,54,303,41,1,0,0,0,0,0
1055,1509661516,39.9256,-70.9010,195.65,0,11,0,11,8,0.41,310.90,2.10,1.00,1.80,17,11,2,22,25,16,0,1,3,330,21,0,10,84,216,40,1,12,35,90,39,1,14,38,287,37,1,15,3,92,24,0,18,55,152,39,1,21,3,187,23,0,24,31,49,39,1,25,33,137,36,1,31,18,224,42,1,32,54,303,40,1,0,0,0,0,0
1055,1509661517,39.9256,-70.9010,189.95,0,11,0,11,8,0.67,298.90,1.30,1.00,0.90,17,11,2,22,25,17,0,1,3,330,21,0,10,84,216,41,1,12,35,90,39,1,14,38,287,36,1,15,3,92,26,0,18,55,152,40,1,21,3,187,25,0,24,31,49,37,1,25,33,137,36,1,31,18,224,42,1,32,54,303,41,1,0,0,0,0,0
1055,1509661518,39.9256,-70.9010,191.59,0,11,0,11,8,0.82,284.70,1.30,1.00,0.90,17,11,2,22,25,18,0,1,3,330,21,0,10,84,216,41,1,12,35,90,40,1,14,38,287,37,1,15,3,92,37,0,18,55,152,39,1,21,3,187,26,0,24,31,49,37,1,25,33,137,35,1,31,18,224,43,1,32,54,303,41,1,0,0,0,0,0
1055,1509661519,39.9256,-70.9010,189.47,0,11,0,11,8,0.41,301.10,1.30,1.00,0.90,17,11,2,22,25,19,0,1,3,330,20,0,10,84,216,41,1,12,35,90,40,1,14,38,287,37,1,15,3,92,36,0,18,55,152,38,1,21,3,187,25,0,24,31,49,37,1,25,33,137,36,1,31,18,224,43,1,32,54,303,41,1,0,0,0,0,0
1055,1509661520,39.9256,-70.9010,189.89,0,11,0,11,8,0.36,314.10,1.30,1.00,0.90,17,11,2,22,25,20,10,1,3,330,18,0,10,84,216,41,1,12,35,90,39,1,14,38,287,38,1,15,3,92,34,0,18,55,152,38,1,21,3,187,27,0,24,31,49,36,1,25,33,137,28,1,31,18,224,43,1,32,54,303,40,1,0,0,0,0,0
1055,1509661521,39.9256,-70.9010,192.42,1,11,0,11,8,0.00,314.10,1.30,1.00,0.90,17,11,2,22,25,21,10,1,3,330,19,0,10,84,216,41,1,12,35,90,40,1,14,38,287,36,1,15,3,92,32,0,18,55,152,39,1,21,3,187,26,0,24,31,49,37,1,25,33,137,29,1,31,18,224,42,1,32,54,303,40,1,0,0,0,0,0
1055,1509661522,39.9256,-70.9010,193.58,2,11,0,11,8,0.57,301.10,1.30,1.00,0.90,17,11,2,22,25,22,10,1,4,330,18,0,10,84,216,41,1,12,35,90,40,1,14,38,287,36,1,15,3,92,22,0,18,55,152,38,1,21,3,187,26,0,24,31,49,38,1,25,33,137,36,1,31,18,224,42,1,32,54,303,39,1,0,0,0,0,0
1055,1509661523,39.9256,-70.9010,190.85,3,11,0,11,8,0.72,285.40,1.30,1.00,0.90,17,11,2,22,25,23,10,1,4,330,25,0,10,84,216,41,1,12,35,90,41,1,14,38,287,36,1,15,3,92,39,0,18,55,152,38,1,21,3,187,26,0,24,31,49,37,1,25,33,137,37,1,31,18,224,42,1,32,54,303,39,1,0,0,0,0,0
1055,1509661524,39.9256,-70.9010,191.79,5,11,0,11,8,0.62,261.40,1.30,1.00,0.90,17,11,2,22,25,24,10,1,4,330,14,0,10,84,216,42,1,12,35,90,41,1,14,38,287,36,1,15,3,92,38,0,18,55,152,38,1,21,3,187,27,0,24,31,49,39,1,25,33,137,37,1,31,18,224,42,1,32,54,303,40,1,0,0,0,0,0
1055,1509661525,39.9256,-70.9010,191.35,5,11,0,11,8,0.36,308.30,1.30,1.00,0.90,17,11,2,22,25,25,10,1,4,330,16,0,10,84,216,41,1,12,35,90,41,1,14,38,287,36,1,15,3,92,29,0,18,55,152,39,1,21,3,187,16,0,24,31,49,39,1,25,33,137,37,1,31,18,224,42,1,32,54,303,41,1,0,0,0,0,0
Message Id[unsigned short|#],Timestamp[unsigned long|epoch],Latitude[double|°],Longitude[double|°],Mission Time[unsigned long|tod],Depth[float|Meters],Range Setting[short|Meters],Pitch[float|°],Look Down Angle[float|°],Altitude[float|Meters],Sonar Range[float|Meters],Roll[float|°],Sonar Range Minimum[float|Meters],Estimated Range[float|m/s],Estimated Rate[float|m/s],Obstacle Range-Rate Minimum[float|m/s],Obstacle Range Maximum[float|Meters],Obstacle Range Critical[float|Meters],Obstacle Range-Rate Critical[float|m/s],Pings[unsigned long|#],Status[unsigned char|mask],Median Filter Range[float|Meters]
1102,1509661501,39.9255,-70.9009,80701183,0.16,30,3.21,25.00,0.00,0.00,2.29,3.30,29.40,0.00,-1.70,27.00,5.00,-0.70,909,0,29.66
1102,1509661501,39.9255,-70.9009,80701549,0.19,30,0.79,25.00,0.00,0.00,8.03,3.30,29.40,0.00,-1.70,27.00,5.00,-0.70,910,0,29.66
1102,1509661501,39.9255,-70.9009,80701933,0.25,30,-0.98,25.00,0.00,0.00,5.31,3.30,29.40,0.00,-1.70,27.00,5.00,-0.70,911,0,29.66
1102,1509661502,39.9255,-70.9009,80702299,0.27,30,-0.83,25.00,0.00,0.00,-2.79,3.30,29.40,0.00,-1.70,27.00,5.00,-0.70,912,0,29.66
1102,1509661502,39.9255,-70.9009,80702683,0.16,30,0.37,25.00,0.00,0.00,-1.81,3.30,29.40,0.00,-1.70,27.00,5.00,-0.70,913,0,29.66
1102,1509661503,39.9255,-70.9009,80703049,0.14,30,1.08,25.00,0.00,0.00,6.54,3.30,29.40,0.00,-1.70,27.00,5.00,-0.70,914,0,29.66
1102,1509661503,39.9255,-70.9009,80703433,0.18,30,-0.54,25.00,0.00,0.00,9.27,3.30,29.40,0.00,-1.70,27.00,5.00,-0.70,915,0,29.66
1102,1509661503,39.9255,-70.9009,80703799,0.17,30,-2.99,25.00,0.00,0.00,1.48,3.30,29.40,0.00,-1.70,27.00,5.00,-0.70,916,0,29.66
1102,1509661504,39.9255,-70.9009,80704183,0.13,30,-3.82,25.00,0.00,0.00,-6.95,3.30,29.40,0.00,-1.70,27.00,5.00,-0.70,917,0,29.66
1102,1509661504,39.9255,-70.9009,80704549,0.09,30,-2.58,25.00,0.00,0.00,-4.03,3.30,29.40,0.00,-1.70,27.00,5.00,-0.70,918,0,29.66
1102,1509661504,39.9255,-70.9009,80704933,0.14,30,-0.30,25.00,0.00,0.00,5.81,3.30,29.40,0.00,-1.70,27.00,5.00,-0.70,919,0,29.66
1102,1509661505,39.9255,-70.9009,80705299,0.19,30,2.53,25.00,0.00,0.00,4.77,3.30,29.40,0.00,-1.70,27.00,5.00,-0.70,920,0,29.66
1102,1509661505,39.9255,-70.9009,80705683,0.16,30,4.76,25.00,0.00,0.00,-2.31,3.30,29.40,0.00,-1.70,27.00,5.00,-0.70,921,0,29.66
1102,1509661506,39.9255,-70.9009,80706049,0.16,30,4.52,25.00,0.00,0.00,-4.28,3.30,29.40,0.00,-1.70,27.00,5.00,-0.70,922,0,29.66
1102,1509661506,39.9255,-70.9009,80706433,0.13,30,1.02,25.00,0.00,0.00,1.29,3.30,29.40,0.00,-1.70,27.00,5.00,-0.70,923,0,29.66
1102,1509661506,39.9255,-70.9009,80706799,0.14,30,-4.59,25.00,0.00,0.00,10.77,3.30,29.40,0.00,-1.70,27.00,5.00,-0.70,924,0,29.66
1102,1509661507,39.9255,-70.9009,80707183,0.25,30,-6.83,25.00,0.00,0.00,11.06,3.30,29.40,0.00,-1.70,27.00,5.00,-0.70,925,0,29.66
1102,1509661507,39.9255,-70.9009,80707549,0.24,30,-4.13,25.00,0.00,0.00,1.66,3.30,29.40,0.00,-1.70,27.00,5.00,-0.70,926,0,29.66
1102,1509661507,39.9255,-70.9009,80707933,0.18,30,-0.77,25.00,0.00,0.00,-6.05,3.30,29.40,0.00,-1.70,27.00,5.00,-0.70,927,0,29.66
1102,1509661508,39.9255,-70.9009,80708299,0.10,30,0.41,25.00,0.00,0.00,-2.44,3.30,29.40,0.00,-1.70,27.00,5.00,-0.70,928,0,29.66
1102,1509661508,39.9255,-70.9009,80708683,0.11,30,0.49,25.00,0.00,0.00,3.46,3.30,29.40,0.00,-1.70,27.00,5.00,-0.70,929,0,29.66
1102,1509661509,39.9255,-70.9009,80709049,0.17,30,0.66,25.00,0.00,0.00,2.69,3.30,29.40,0.00,-1.70,27.00,5.00,-0.70,930,0,29.66
1102,1509661509,39.9255,-70.9009,80709433,0.19,30,1.19,25.00,0.00,0.00,-1.15,3.30,29.40,0.00,-1.70,27.00,5.00,-0.70,931,0,29.66
1102,1509661509,39.9255,-70.9009,80709799,0.16,30,1.52,25.00,0.00,0.00,-2.24,3.30,29.40,0.00,-1.70,27.00,5.00,-0.70,932,0,29.66
1102,1509661510,39.9255,-70.9009,80710183,0.15,30,1.18,25.00,0.00,0.00,-0.64,3.30,29.40,0.00,-1.70,27.00,5.00,-0.70,933,0,29.66
Message Id[unsigned short|#],Timestamp[unsigned long|epoch],Source[short|^],Wrong Start Character[long|#],Message Too Long[long|#],Message Too Long 2[long|#],Payload Too Long[long|#],Payload Too Short[long|#],Checksum Error[long|#],Good Messages[long|#],Attempts[short|#],Connection State[short|mask],Time Until Hang-Up[long|secs],Between Calls[unsigned short|mins]
1087,1509666610,0,0,0,0,0,0,0,0,1,5,300,5
1087,1509666611,0,0,0,0,0,0,0,0,1,5,298,5
1087,1509666612,0,0,0,0,0,0,0,0,1,5,297,5
1087,1509666613,0,0,0,0,0,0,0,0,1,5,296,5
1087,1509666614,0,0,0,0,0,0,0,0,1,5,295,5
1087,1509666615,0,0,0,0,0,0,0,0,1,5,294,5
1087,1509666616,0,0,0,0,0,0,0,0,1,5,293,5
1087,1509666617,0,0,0,0,0,0,0,0,1,5,292,5
1087,1509666619,0,0,0,0,0,0,0,0,1,5,291,5
1087,1509666620,0,0,0,0,0,0,0,0,1,5,290,5
1087,1509666621,0,0,0,0,0,0,0,0,1,5,289,5
1087,1509666622,0,0,0,0,0,0,0,0,1,6,288,5
1087,1509666623,0,0,0,0,0,0,0,0,1,6,287,5
1087,1509666624,0,0,0,0,0,0,0,0,1,6,286,5
1087,1509666625,0,0,0,0,0,0,0,0,1,6,285,5
1087,1509666626,0,0,0,0,0,0,0,0,2,6,284,5
1087,1509666627,0,0,0,0,0,0,0,0,2,6,283,5
1087,1509666628,0,0,0,0,0,0,0,0,2,6,282,5
1087,1509666629,0,0,0,0,0,0,0,0,2,6,281,5
1087,1509666630,0,0,0,0,0,0,0,0,2,6,280,5
1087,1509666631,0,0,0,0,0,0,0,0,2,6,279,5
1087,1509666632,0,0,0,0,0,0,0,0,2,6,278,5
1087,1509666633,0,0,0,0,0,0,0,0,2,6,277,5
1087,1509666634,0,0,0,0,0,0,0,0,2,6,276,5
1087,1509666635,0,0,0,0,0,0,0,0,2,6,275,5
Message Id[unsigned short|#],Timestamp[unsigned long|epoch],Latitude[double|°],Longitude[double|°],Mission Time[unsigned long|tod],Depth[float|Meters],Conductivity[float|mS/cm],Temperature[float|°C],Salinity[float|PSS-78],Sound Speed[float|m/s],Pressure[float|dBars]
1107,1509661501,39.9255,-70.9009,80701299,0.17,47.82,19.77,35.11,1520.96,0.17
1107,1509661501,39.9255,-70.9009,80701483,0.17,47.82,19.77,35.11,1520.96,0.17
1107,1509661501,39.9255,-70.9009,80701683,0.19,47.82,19.77,35.12,1520.96,0.19
1107,1509661501,39.9255,-70.9009,80701866,0.25,34.50,19.77,24.41,1509.01,0.25
1107,1509661502,39.9255,-70.9009,80702116,0.27,41.50,19.77,29.97,1515.21,0.27
1107,80702299,39.9255,-70.9009,80702299,0.27,47.81,19.77,35.11,1520.95,0.27
1107,1509661502,39.9255,-70.9009,80702483,0.21,47.82,19.77,35.11,1520.96,0.21
1107,1509661502,39.9255,-70.9009,80702683,0.16,47.82,19.77,35.11,1520.97,0.16
1107,1509661502,39.9255,-70.9009,80702866,0.14,47.82,19.77,35.11,1520.96,0.14
1107,1509661503,39.9255,-70.9009,80703116,0.16,47.82,19.77,35.11,1520.96,0.16
1107,1509661503,39.9255,-70.9009,80703299,0.16,44.86,19.77,32.69,1518.24,0.16
1107,1509661503,39.9255,-70.9009,80703483,0.18,24.63,19.77,16.85,1500.59,0.18
1107,1509661503,39.9255,-70.9009,80703683,0.17,39.04,19.77,28.00,1512.99,0.17
1107,1509661503,39.9255,-70.9009,80703866,0.16,46.07,19.77,33.68,1519.34,0.16
1107,1509661504,39.9255,-70.9009,80704116,0.13,45.20,19.77,32.96,1518.56,0.13
1107,80704299,39.9255,-70.9009,80704299,0.13,46.72,19.77,34.21,1519.95,0.13
1107,80704483,39.9255,-70.9009,80704483,0.09,47.82,19.77,35.11,1520.96,0.08
1107,1509661504,39.9255,-70.9009,80704683,0.08,47.82,19.77,35.11,1520.96,0.08
1107,1509661504,39.9255,-70.9009,80704866,0.08,47.82,19.77,35.11,1520.97,0.08
1107,1509661505,39.9255,-70.9009,80705116,0.14,47.82,19.77,35.11,1520.97,0.14
1107,80705299,39.9255,-70.9009,80705299,0.19,47.82,19.77,35.11,1520.97,0.19
1107,1509661505,39.9255,-70.9009,80705483,0.19,47.82,19.77,35.11,1520.96,0.19
1107,1509661505,39.9255,-70.9009,80705683,0.16,47.82,19.77,35.11,1520.96,0.16
1107,80705866,39.9255,-70.9009,80705866,0.16,47.82,19.77,35.11,1520.96,0.16
1107,1509661506,39.9255,-70.9009,80706116,0.16,47.82,19.77,35.11,1520.96,0.16
Message Id[unsigned short|#],Timestamp[unsigned long|epoch],Latitude[double|°],Longitude[double|°],Depth[float|Meters],Raw Value[short|#],Oil Level[float|%],Mission Time[unsigned long|tod],Oil Location[unsigned char|^]
1075,1509661501,39.9255,-70.9009,0.25,288,79.84,80701799,0
1075,1509661511,39.9255,-70.9009,0.17,295,82.66,80711866,0
1075,1509661521,39.9256,-70.9010,0.07,291,81.05,80721933,0
1075,1509661531,39.9254,-70.9010,-0.03,293,81.85,80731983,0
1075,1509661542,39.9252,-70.9010,0.07,300,84.68,80742049,0
1075,1509661552,39.9250,-70.9008,0.46,295,82.66,80752116,0
1075,1509661562,39.9248,-70.9007,2.88,296,83.06,80762183,0
1075,1509661572,39.9247,-70.9008,2.21,296,83.06,80772233,0
1075,1509661582,39.9245,-70.9009,2.77,302,85.48,80782299,0
1075,1509661592,39.9243,-70.9009,2.72,305,86.69,80792383,0
1075,1509661602,39.9242,-70.9009,2.91,306,87.10,80802483,0
1075,1509661612,39.9240,-70.9008,2.97,309,88.31,80812549,0
1075,1509661622,39.9238,-70.9008,2.95,310,88.71,80822616,0
1075,1509661632,39.9236,-70.9008,2.95,311,89.11,80832666,0
1075,1509661642,39.9234,-70.9008,2.95,310,88.71,80842733,0
1075,1509661652,39.9233,-70.9008,3.03,311,89.11,80852799,0
1075,1509661662,39.9231,-70.9008,2.93,312,89.52,80862866,0
1075,1509661672,39.9229,-70.9008,3.03,313,89.92,80872916,0
1075,1509661682,39.9227,-70.9008,2.94,313,89.92,80882983,0
1075,1509661693,39.9226,-70.9008,3.02,314,90.32,80893049,0
1075,1509661703,39.9224,-70.9008,3.02,316,91.13,80903116,0
1075,1509661713,39.9222,-70.9007,2.92,316,91.13,80913166,0
1075,1509661723,39.9220,-70.9007,2.93,316,91.13,80923233,0
1075,1509661733,39.9219,-70.9007,0.65,319,92.34,80933299,0
1075,1509661743,39.9223,-70.9021,0.10,314,90.32,80943366,0
Message Id[unsigned short|#],Timestamp[unsigned long|epoch],Latitude[float|°],Longitude[float|°],Mission Time[unsigned long|tod],Depth[float|Meters],Salinity[float|PSS-78],Model[short|#],Serial[short|#],Concentration[float|uM],Saturation[float|%],Temperature[float|°C],Calibrated Phase[float|°],B Phase[float|°],R Phase[float|°],B Amp[float|mV],B Pot[float|mV],R Amp[float|mV],Raw Temperature[float|mV],Calculated Concentration[float|uM],Calculated Saturation[float|%],External Temperature[float|°C]
1109,1509661502,39.93,-70.90,80702049,0.25,24.41,4330,1520,241.80,84.82,19.79,30.66,30.66,39.53,8.87,821.10,694.30,272.70,0.00,0.00,0.00
1109,1509661504,39.93,-70.90,80704049,0.16,33.68,4330,1520,241.71,84.78,19.79,30.66,30.66,39.53,8.87,821.20,694.10,272.70,0.00,0.00,0.00
1109,1509661506,39.93,-70.90,80706049,0.16,35.11,4330,1520,241.57,84.73,19.79,30.67,30.67,39.54,8.87,821.30,694.20,272.70,0.00,0.00,0.00
1109,1509661508,39.93,-70.90,80708049,0.11,35.11,4330,1520,241.44,84.69,19.79,30.67,30.67,39.55,8.87,821.60,694.20,272.70,0.00,0.00,0.00
1109,1509661510,39.93,-70.90,80710049,0.15,35.07,4330,1520,241.74,84.79,19.79,30.66,30.66,39.53,8.87,821.20,694.20,272.70,0.00,0.00,0.00
1109,1509661512,39.93,-70.90,80712049,0.16,35.11,4330,1520,241.70,84.78,19.79,30.66,30.66,39.53,8.87,821.20,694.30,272.60,0.00,0.00,0.00
1109,1509661514,39.93,-70.90,80714049,0.22,35.11,4330,1520,241.58,84.74,19.79,30.67,30.67,39.54,8.87,821.30,694.10,272.70,0.00,0.00,0.00
1109,1509661516,39.93,-70.90,80716049,-0.02,19.71,4330,1520,241.64,84.76,19.79,30.66,30.66,39.54,8.87,821.30,694.20,272.60,0.00,0.00,0.00
1109,1509661518,39.93,-70.90,80718049,-0.02,35.11,4330,1520,241.65,84.77,19.79,30.66,30.66,39.53,8.87,821.40,694.20,272.60,0.00,0.00,0.00
1109,1509661520,39.93,-70.90,80720116,-0.03,35.11,4330,1520,241.50,84.71,19.79,30.67,30.67,39.54,8.87,821.50,694.20,272.70,0.00,0.00,0.00
1109,1509661522,39.93,-70.90,80722049,-0.02,35.12,4330,1520,241.65,84.76,19.79,30.66,30.66,39.54,8.87,821.40,694.20,272.70,0.00,0.00,0.00
1109,1509661524,39.93,-70.90,80724116,0.02,35.11,4330,1520,241.43,84.68,19.78,30.68,30.68,39.55,8.87,821.50,694.10,272.80,0.00,0.00,0.00
1109,1509661526,39.93,-70.90,80726049,0.02,35.11,4330,1520,242.04,84.90,19.79,30.65,30.65,39.52,8.87,820.40,694.10,272.80,0.00,0.00,0.00
1109,1509661528,39.93,-70.90,80728049,0.04,35.12,4330,1520,241.94,84.86,19.78,30.65,30.65,39.52,8.87,820.80,694.10,272.80,0.00,0.00,0.00
1109,1509661530,39.93,-70.90,80730049,0.03,35.12,4330,1520,241.61,84.72,19.77,30.67,30.67,39.54,8.87,821.30,694.00,273.30,0.00,0.00,0.00
1109,1509661532,39.93,-70.90,80732049,-0.05,35.11,4330,1520,240.90,84.47,19.77,30.71,30.71,39.58,8.87,821.40,693.50,273.30,0.00,0.00,0.00
1109,1509661534,39.93,-70.90,80734116,0.05,35.12,4330,1520,240.37,84.25,19.75,30.74,30.74,39.61,8.87,822.20,693.20,274.00,0.00,0.00,0.00
1109,1509661536,39.93,-70.90,80736049,0.11,35.12,4330,1520,239.61,84.01,19.76,30.77,30.77,39.64,8.87,820.20,692.60,273.50,0.00,0.00,0.00
1109,1509661538,39.93,-70.90,80738049,0.01,35.12,4330,1520,239.01,83.79,19.76,30.80,30.80,39.67,8.87,820.80,692.50,273.50,0.00,0.00,0.00
1109,1509661540,39.93,-70.90,80740049,0.04,35.12,4330,1520,238.64,83.67,19.77,30.82,30.82,39.69,8.87,821.40,692.40,273.40,0.00,0.00,0.00
1109,1509661542,39.93,-70.90,80742049,0.07,35.13,4330,1520,238.30,83.56,19.77,30.83,30.83,39.70,8.87,821.80,692.50,273.20,0.00,0.00,0.00
1109,1509661544,39.93,-70.90,80744116,0.07,35.12,4330,1520,238.02,83.46,19.77,30.84,30.84,39.71,8.87,822.00,692.70,273.30,0.00,0.00,0.00
1109,1509661546,39.93,-70.90,80746049,0.03,35.12,4330,1520,238.03,83.47,19.78,30.84,30.84,39.71,8.87,821.70,692.60,273.10,0.00,0.00,0.00
1109,1509661548,39.93,-70.90,80748049,0.06,35.12,4330,1520,237.86,83.42,19.78,30.85,30.85,39.72,8.87,821.30,692.50,272.90,0.00,0.00,0.00
1109,1509661550,39.93,-70.90,80750049,0.17,35.11,4330,1520,238.08,83.50,19.78,30.84,30.84,39.71,8.87,820.50,692.30,272.90,0.00,0.00,0.00
Message Id[unsigned short|#],Timestamp[unsigned long|epoch],Latitude[double|°],Longitude[double|°],Mission Time[unsigned long|tod],Depth[float|Meters],Sample Time[double|msecs],Nitrate Concentration[float|uMol/L],Nitrogen in Nitrage[float|mg/L],Spectral Average of Last Dark Frame[unsigned short|#],Spectrometer Temperature[float|°C],Lamp State[bool|^],Lamp Temperature[float|°C],Cumulative Lamp On-Time[unsigned long|secs],Relative Humidity[float|%],Input Voltage[float|V],Lamp Voltage[float|V],Internal Voltage[float|V],Main Current[float|mA]
1174,1509661534,39.9254,-70.9010,80734933,0.02,22.4190,0.00,0.00,0,20.75,false,20.31,635359,6.84,12.09,0.12,5.03,61.84
1174,1509661539,39.9253,-70.9010,80739483,0.02,22.4203,1.96,0.03,716,20.75,true,20.31,635360,6.65,11.83,12.06,5.03,515.49
1174,1509661541,39.9252,-70.9010,80741616,0.01,22.4209,0.00,0.00,0,20.75,false,20.31,635360,6.77,12.10,12.04,5.04,110.37
1174,1509661542,39.9252,-70.9010,80742866,-0.00,22.4212,0.00,0.00,0,20.75,false,20.25,635360,6.61,12.07,12.03,5.10,97.02
1174,1509661544,39.9252,-70.9009,80744116,0.11,22.4216,0.00,0.00,0,20.75,false,20.25,635360,7.08,12.04,12.03,5.04,114.65
1174,1509661545,39.9251,-70.9009,80745433,0.04,22.4219,0.00,0.00,0,20.75,false,20.25,635360,7.13,12.07,12.03,5.04,115.52
1174,1509661546,39.9251,-70.9009,80746616,0.02,22.4223,0.00,0.00,0,20.81,false,20.25,635360,6.64,12.08,12.03,5.06,105.03
1174,1509661547,39.9251,-70.9009,80747866,0.00,22.4226,0.00,0.00,0,20.81,false,20.25,635360,6.66,12.07,12.04,5.03,110.14
1174,1509661549,39.9251,-70.9008,80749049,0.10,22.4229,0.00,0.00,0,20.81,false,20.25,635360,6.71,12.07,12.03,5.04,102.33
1174,1509661550,39.9250,-70.9008,80750299,0.18,22.4233,0.00,0.00,0,20.81,false,20.25,635360,6.78,12.06,12.04,5.03,108.44
1174,1509661551,39.9250,-70.9008,80751549,0.31,22.4236,0.00,0.00,0,20.88,false,20.25,635360,6.97,12.06,12.03,5.04,119.48
1174,1509661552,39.9250,-70.9008,80752799,0.64,22.4240,0.00,0.00,0,20.88,false,20.25,635360,6.64,12.05,12.03,5.04,109.57
1174,1509661554,39.9250,-70.9007,80754049,1.07,22.4243,0.00,0.00,0,20.94,false,20.25,635360,7.03,12.06,12.04,5.02,119.77
1174,1509661556,39.9249,-70.9007,80756299,1.44,22.4249,2.80,0.04,691,20.94,true,20.25,635361,7.03,11.83,12.07,5.05,521.94
1174,1509661558,39.9249,-70.9007,80758433,2.44,22.4255,0.00,0.00,0,20.94,false,20.25,635361,6.99,12.04,12.04,5.04,114.62
1174,1509661559,39.9249,-70.9007,80759683,2.73,22.4259,0.00,0.00,0,21.00,false,20.25,635361,6.59,12.06,12.03,5.04,101.42
1174,1509661560,39.9249,-70.9007,80760866,2.88,22.4262,0.00,0.00,0,21.00,false,20.25,635361,6.73,12.06,12.03,5.04,105.17
1174,1509661562,39.9248,-70.9007,80762183,2.88,22.4266,0.00,0.00,0,21.06,false,20.25,635361,6.98,12.08,12.04,5.03,116.59
1174,1509661563,39.9248,-70.9007,80763433,2.75,22.4269,0.00,0.00,0,21.13,false,20.25,635361,6.69,12.08,12.04,5.06,106.27
1174,1509661564,39.9248,-70.9007,80764683,2.61,22.4273,0.00,0.00,0,21.13,false,20.25,635361,6.58,12.06,12.03,5.05,107.96
1174,1509661565,39.9248,-70.9007,80765933,2.44,22.4276,0.00,0.00,0,21.13,false,20.25,635361,7.12,12.07,12.04,5.07,116.34
1174,1509661567,39.9248,-70.9008,80767183,2.26,22.4280,0.00,0.00,0,21.19,false,20.25,635361,6.75,12.09,12.04,5.03,102.01
1174,1509661568,39.9247,-70.9008,80768366,2.16,22.4283,0.00,0.00,0,21.19,false,20.25,635361,6.96,12.05,12.03,5.04,113.50
1174,1509661569,39.9247,-70.9008,80769616,2.04,22.4286,0.00,0.00,0,21.25,false,20.25,635361,6.54,12.07,12.04,5.04,108.17
1174,1509661570,39.9247,-70.9008,80770866,2.12,22.4290,0.00,0.00,0,21.25,false,20.25,635361,6.80,12.06,12.05,5.04,107.87
Message Id[unsigned short|#],Flags[signed char|mask],Battery Index[signed char|#],Battery Count[signed char|#],Address[signed char|mask],Voltage[unsigned short|mV],End of Discharge[short|mV],Average Current[short|mA],Temperature 1/10th[unsigned short|°K],Full Charge Capacity[unsigned short|mAh],Remaining Capacity[unsigned short|mAh],Desired Charge Rate[unsigned short|mA],Serial[unsigned short|#],Battery Status[unsigned short|mask],Battery Flags [unsigned short|mask],Cycle Count[unsigned short|#],Timestamp[unsigned long|epoch],Available Power[float|W],Temperature[float|°C],Pressure[short|mbars],PIC Charge Value[unsigned char|#],PIC Balance Enabled[unsigned char|mask],PIC FET State[unsigned char|mask],PIC Faults[unsigned char|mask],PIC Cell Voltage 1[unsigned short|V],PIC Cell Voltage 2[unsigned short|V],PIC Cell Voltage 3[unsigned short|V],PIC Cell Voltage 4[unsigned short|V],PIC Cell Voltage 5[unsigned short|V],PIC Cell Voltage 6[unsigned short|V],PIC Cell Voltage 7[unsigned short|V],Battery Temperature[float|°K]
1071,0,15,20,24,28836,-25000,-86,2976,20230,18943,5500,11592,192,14336,45,1509661511,496.64,25.00,0,3,0,3,0,41153,41173,41131,41150,41170,41167,41144,23.75
1071,0,5,20,8,28796,-25000,-86,2996,20336,19269,5500,9276,192,14336,59,1509661511,505.73,25.00,0,3,0,3,0,41125,41155,41104,41125,41154,41154,41138,25.55
1071,0,10,20,16,28814,-25000,-86,2967,20779,19400,5500,11586,192,14336,45,1509661511,508.49,25.00,0,3,0,3,0,41133,41161,41121,41137,41155,41161,41136,23.25
1071,0,0,20,0,28806,-25000,0,2994,19848,18529,5500,9315,192,14336,59,1509661511,485.65,25.00,0,3,0,3,0,41114,41151,41120,41110,41158,41159,41129,25.15
1071,0,16,20,25,28813,-25000,-86,2975,20575,19109,5500,11585,192,14336,46,1509661512,500.63,25.00,0,3,0,3,0,41158,41189,41156,41157,41198,41182,41168,23.15
1071,0,6,20,9,28795,-25000,-86,2995,19793,18573,5500,9309,192,14336,57,1509661513,487.03,25.00,0,3,0,3,0,41152,41154,41159,41143,41176,41168,41138,24.75
1071,0,11,20,17,28815,-25000,-86,2967,20760,19340,5500,11591,192,14336,47,1509661513,506.82,25.00,0,3,0,3,0,41128,41165,41134,41130,41171,41173,41139,23.05
1071,0,1,20,1,28762,-25000,-86,2994,20076,18896,5500,9142,192,14336,60,1509661513,495.64,25.00,0,3,0,3,0,41117,41135,41094,41119,41139,41139,41131,25.05
1071,0,17,20,26,28843,-25000,-86,2971,21201,19765,5500,11587,192,14336,47,1509661514,517.99,25.00,0,3,0,3,0,41157,41170,41133,41162,41192,41193,41147,23.55
1071,0,7,20,10,28792,-25000,-86,2996,20134,18971,5500,9143,192,14336,57,1509661514,497.65,25.00,0,3,0,3,0,41148,41172,41101,41121,41164,41147,41137,25.65
1071,0,12,20,18,28829,-25000,-86,2965,20880,19389,5500,11588,192,14336,46,1509661514,507.96,25.00,0,3,0,3,0,41132,41145,41129,41126,41167,41162,41126,23.55
1071,0,2,20,2,28791,-25000,-86,2994,20297,19239,5500,9092,192,14336,64,1509661514,504.96,25.00,0,3,0,3,0,41114,41145,41105,41104,41144,41144,41117,25.45
1071,0,18,20,27,28794,-25000,-86,2970,20177,18686,5500,11227,192,14336,43,1509661516,489.42,25.00,0,3,0,3,0,41152,41175,41138,41153,41186,41178,41138,23.75
1071,0,8,20,11,28821,-25000,-86,2995,20097,18791,5500,9620,192,14336,59,1509661516,492.59,25.00,0,3,0,3,0,41141,41176,41124,41135,41157,41160,41119,25.75
1071,0,13,20,19,28836,-25000,-86,2968,20258,19050,5500,11590,192,14336,46,1509661516,499.64,25.00,0,3,0,3,0,41147,41159,41145,41137,41155,41177,41148,23.35
1071,0,3,20,3,28792,-25000,0,2996,19844,18540,5500,9317,192,14336,62,1509661516,485.98,25.00,0,3,0,3,0,41159,41199,41152,41154,41197,41202,41153,25.45
1071,0,19,20,28,28810,-25000,-86,2967,20568,19153,5500,11207,192,14336,44,1509661518,501.90,25.00,0,3,0,3,0,41123,41132,41132,41113,41163,41167,41140,23.35
1071,0,9,20,12,28803,-25000,-86,2997,20181,18907,5500,9254,192,14336,57,1509661518,495.72,25.00,0,3,0,3,0,41144,41164,41149,41111,41176,41183,41135,25.45
1071,0,14,20,20,28795,-25000,-86,2970,20341,19041,5500,10796,192,14336,45,1509661518,499.19,25.00,0,3,0,3,0,41182,41209,41168,41176,41209,41204,41178,23.85
1071,0,4,20,4,28812,-25000,-86,2997,20164,18722,5500,9248,192,14336,56,1509661518,490.48,25.00,0,3,0,3,0,41143,41170,41128,41139,41183,41172,41152,25.75
1071,0,15,20,24,28597,-25000,-868,2976,20230,18930,5500,11592,448,14336,45,1509661580,496.27,25.00,0,3,0,3,0,41052,41110,41048,40980,41098,41105,41052,23.75
1071,0,5,20,8,28417,-25000,-1303,2996,20336,19249,5500,9276,448,14336,59,1509661580,505.15,25.00,0,3,0,3,0,40778,40885,40775,40592,40878,40899,40780,25.55
1071,0,10,20,16,28605,-25000,-868,2967,20779,19386,5500,11586,192,14336,45,1509661580,508.09,25.00,0,3,0,3,0,40904,41014,40934,40814,41017,41017,40943,23.05
1071,0,0,20,0,28440,-25000,-1129,2994,19848,18511,5500,9315,448,14336,59,1509661580,485.14,25.00,0,3,0,3,0,40671,40838,40753,40595,40858,40864,40751,25.05
1071,0,16,20,25,28620,-25000,-868,2975,20575,19096,5500,11585,192,14336,46,1509661582,500.26,25.00,0,3,0,3,0,40951,41020,40967,40856,41042,41034,40954,23.05
Message Id[unsigned short|#],Timestamp[unsigned long|epoch],Fin Count[signed char|#],Pitch Position[signed char|%],Rudder Position[signed char|%],Roll Position[signed char|%],Pitch Command[float|°],Rudder Command[float|°],Roll Command[float|°],Command Data 1[float|°],Position Data 1[float|%],Command Data 2[float|°],Position Data 2[float|%],Command Data 3[float|°],Position Data 3[float|%],Command Data 4[float|°],Position Data 4[float|%],Command Data 5[float|°],Position Data 5[float|%],Command Data 6[float|°],Position Data 6[float|%],Yaw Translation Command[float|°],Depth Translation Command[float|°],Yaw Translation Position[signed char|%],Depth Translation Position[signed char|%]
1089,1509661501,3,-66,68,0,-100.00,100.00,0.00,-66.67,-68.75,100.00,100.00,-33.33,-32.75,0.00,0.00,0.00,0.00,0.00,0.00,0.00,0.00,0,0
1089,1509661502,3,-99,0,0,-100.00,0.00,0.00,0.00,0.50,100.00,100.00,-100.00,-99.25,0.00,0.00,0.00,0.00,0.00,0.00,0.00,0.00,0,0
1089,1509661503,3,-99,0,0,-100.00,0.00,0.00,0.00,-0.25,100.00,99.75,-100.00,-100.00,0.00,0.00,0.00,0.00,0.00,0.00,0.00,0.00,0,0
1089,1509661504,3,-100,0,0,-100.00,0.00,0.00,0.00,0.50,100.00,100.00,-100.00,-100.00,0.00,0.00,0.00,0.00,0.00,0.00,0.00,0.00,0,0
1089,1509661505,3,-100,0,0,-100.00,0.00,0.00,0.00,-0.25,100.00,100.00,-100.00,-100.00,0.00,0.00,0.00,0.00,0.00,0.00,0.00,0.00,0,0
1089,1509661506,3,-99,-1,0,-100.00,0.00,0.00,0.00,1.50,100.00,99.50,-100.00,-100.00,0.00,0.00,0.00,0.00,0.00,0.00,0.00,0.00,0,0
1089,1509661507,3,-99,0,0,-100.00,0.00,0.00,0.00,1.25,100.00,99.75,-100.00,-99.50,0.00,0.00,0.00,0.00,0.00,0.00,0.00,0.00,0,0
1089,1509661508,3,-99,0,0,-100.00,0.00,0.00,0.00,0.25,100.00,99.50,-100.00,-100.00,0.00,0.00,0.00,0.00,0.00,0.00,0.00,0.00,0,0
1089,1509661509,3,-99,0,0,-100.00,0.00,0.00,0.00,0.25,100.00,99.75,-100.00,-99.75,0.00,0.00,0.00,0.00,0.00,0.00,0.00,0.00,0,0
1089,1509661510,3,-99,0,0,-100.00,0.00,0.00,0.00,0.50,100.00,99.75,-100.00,-100.00,0.00,0.00,0.00,0.00,0.00,0.00,0.00,0.00,0,0
1089,1509661511,3,-99,0,0,-100.00,0.00,0.00,0.00,1.00,100.00,100.00,-100.00,-99.25,0.00,0.00,0.00,0.00,0.00,0.00,0.00,0.00,0,0
1089,1509661512,3,-100,0,0,-100.00,0.00,0.00,0.00,0.75,100.00,100.00,-100.00,-100.00,0.00,0.00,0.00,0.00,0.00,0.00,0.00,0.00,0,0
1089,1509661513,3,-100,0,0,-100.00,0.00,0.00,0.00,-0.25,100.00,100.00,-100.00,-100.00,0.00,0.00,0.00,0.00,0.00,0.00,0.00,0.00,0,0
1089,1509661514,3,-99,0,0,-100.00,0.00,0.00,0.00,1.00,100.00,99.75,-100.00,-99.75,0.00,0.00,0.00,0.00,0.00,0.00,0.00,0.00,0,0
1089,1509661515,3,-99,0,0,-100.00,0.00,0.00,0.00,0.75,100.00,99.75,-100.00,-99.75,0.00,0.00,0.00,0.00,0.00,0.00,0.00,0.00,0,0
1089,1509661516,3,-100,0,0,-100.00,0.00,0.00,0.00,0.50,100.00,100.00,-100.00,-100.00,0.00,0.00,0.00,0.00,0.00,0.00,0.00,0.00,0,0
1089,1509661517,3,-99,0,0,-100.00,0.00,0.00,0.00,-0.25,100.00,99.75,-100.00,-100.00,0.00,0.00,0.00,0.00,0.00,0.00,0.00,0.00,0,0
1089,1509661518,3,-99,0,0,-100.00,0.00,0.00,0.00,0.50,100.00,99.75,-100.00,-100.00,0.00,0.00,0.00,0.00,0.00,0.00,0.00,0.00,0,0
1089,1509661519,3,-99,0,0,-100.00,0.00,0.00,0.00,1.25,100.00,100.00,-100.00,-99.50,0.00,0.00,0.00,0.00,0.00,0.00,0.00,0.00,0,0
1089,1509661520,3,63,74,0,78.37,100.00,0.00,-77.90,-74.75,-22.10,-26.50,100.00,99.50,0.00,0.00,0.00,0.00,0.00,0.00,0.00,0.00,0,0
1089,1509661521,3,59,79,0,80.70,100.00,0.00,-76.51,-79.50,-23.49,-19.25,100.00,100.00,0.00,0.00,0.00,0.00,0.00,0.00,0.00,0.00,0,0
1089,1509661522,3,63,70,0,86.80,100.00,0.00,-73.10,-71.00,-26.90,-28.00,100.00,98.50,0.00,0.00,0.00,0.00,0.00,0.00,0.00,0.00,0,0
1089,1509661523,3,60,76,0,88.93,100.00,0.00,-71.98,-75.75,-28.02,-22.00,100.00,99.00,0.00,0.00,0.00,0.00,0.00,0.00,0.00,0.00,0,0
1089,1509661524,3,64,70,0,87.78,100.00,0.00,-72.58,-70.50,-27.42,-29.00,100.00,99.50,0.00,0.00,0.00,0.00,0.00,0.00,0.00,0.00,0,0
1089,1509661525,3,63,71,0,90.88,100.00,0.00,-70.98,-71.50,-29.02,-27.75,100.00,99.50,0.00,0.00,0.00,0.00,0.00,0.00,0.00,0.00,0,0
Message Id[unsigned short|#],Timestamp[unsigned long|epoch],Software Version[unsigned char|#],Temperature[float|°C],Heading Rate[float|°],Pressure[float|mbars],Depth[float|Meters],Depth Goal[float|Meters],OBS[float|n/a],Voltage[float|V],Current[float|A],GFI[float|%],Pitch[float|°],Pitch Goal[float|°],Roll[float|°],Thruster[short|RPM],Thruster Goal[short|RPM],Compass True Heading[float|°],Heading Goal[float|°],Mission Time[unsigned long|tod],Days Since 1970[unsigned short|#],Latitude[double|°],Longitude[double|°],DR Latitude[double|°],DR Longitude[double|°],Goal Latitude[double|°],Goal Longitude[double|°],Estimated Velocity[float|m/s],Heading Offset[float|°],Flags[short|mask],Thruster Command[signed char|#],Pitch Command[signed char|#],Rudder Command[signed char|#],Pitch Fin Position[signed char|#],Rudder Fin Position[signed char|#],Total Objectives[unsigned char|#],Current Objective[unsigned char|#],CPU Usage[unsigned char|%],Objective Index[unsigned char|%],Leg Number[unsigned short|%],Spare Slider[float|#],Roll Rate[float|°/s],Pitch Rate[float|°/s],Faults[unsigned long|mask],Navigation Mode[unsigned char|state],Secondary Faults[unsigned short|mask]
1000,1509661501,22,35.26,1.17,729.93,0.16,0.00,0.00,28.48,2.14,0.09,3.38,0.00,1.26,119,600,191.58,0.00,80701183,17472,39.9255,-70.9009,39.9219,-70.9007,39.9219,-70.9007,0.06,0.00,11328,10,-100,100,-66,68,11,2,100,14,1,0.00,17.34,-0.36,16777216,1,64
1000,1509661502,22,35.26,1.34,730.10,0.27,0.00,0.00,28.49,1.76,0.09,-1.09,0.00,0.77,0,0,188.16,0.00,80702183,17472,39.9255,-70.9009,39.9219,-70.9007,39.9219,-70.9007,0.13,0.00,11328,0,-100,0,-99,0,11,2,2,14,1,0.00,-23.37,0.17,16777216,1,68
1000,1509661503,22,35.26,1.71,730.02,0.16,0.00,0.00,28.52,1.76,0.09,0.98,0.00,7.64,0,0,192.22,0.00,80703183,17472,39.9255,-70.9009,39.9219,-70.9007,39.9219,-70.9007,0.06,0.00,11328,0,-100,0,-99,0,11,2,2,14,1,0.00,17.23,-1.70,16777216,1,68
1000,1509661504,22,35.26,1.55,729.98,0.13,0.00,0.00,28.52,1.78,0.09,-3.83,0.00,-6.09,0,0,189.24,0.00,80704183,17472,39.9255,-70.9009,39.9219,-70.9007,39.9219,-70.9007,0.03,0.00,11328,0,-100,0,-100,0,11,2,2,14,1,0.00,-16.38,-1.39,16777216,1,68
1000,1509661505,22,35.27,-5.09,729.90,0.19,0.00,0.00,28.50,1.64,0.09,1.07,0.00,7.03,0,0,193.18,0.00,80705183,17472,39.9255,-70.9009,39.9219,-70.9007,39.9219,-70.9007,0.01,0.00,11328,0,-100,0,-100,0,11,2,2,14,1,0.00,-4.27,7.22,16777216,1,68
1000,1509661506,22,35.26,3.89,730.01,0.15,0.00,0.00,28.49,1.78,0.09,4.17,0.00,-3.94,0,0,192.67,0.00,80706183,17472,39.9255,-70.9009,39.9219,-70.9007,39.9219,-70.9007,0.00,0.00,11328,0,-100,0,-99,-1,11,2,2,14,1,0.00,7.77,-5.57,16777216,1,68
1000,1509661507,22,35.26,-0.98,729.96,0.25,0.00,0.00,28.50,1.54,0.09,-6.85,0.00,11.82,0,0,192.82,0.00,80707183,17472,39.9255,-70.9009,39.9219,-70.9007,39.9219,-70.9007,0.00,0.00,11328,0,-100,0,-99,0,11,2,2,14,1,0.00,-10.61,-3.44,16777216,1,68
1000,1509661508,22,35.27,2.62,729.96,0.11,0.00,0.00,28.52,1.54,0.09,0.08,0.00,-5.63,0,0,193.45,0.00,80708183,17472,39.9255,-70.9009,39.9219,-70.9007,39.9219,-70.9007,0.00,0.00,11328,0,-100,0,-99,0,11,2,2,14,1,0.00,10.75,2.98,16777216,1,68
1000,1509661509,22,35.27,-0.27,729.95,0.17,0.00,0.00,28.52,1.53,0.09,0.72,0.00,2.05,0,0,190.19,0.00,80709183,17472,39.9255,-70.9009,39.9219,-70.9007,39.9219,-70.9007,0.00,0.00,11328,0,-100,0,-99,0,11,2,2,14,1,0.00,-11.54,1.19,16777216,1,68
1000,1509661510,22,35.27,2.45,729.97,0.15,0.00,0.00,28.52,1.70,0.09,1.26,0.00,-1.07,0,0,192.08,0.00,80710183,17472,39.9255,-70.9009,39.9219,-70.9007,39.9219,-70.9007,0.00,0.00,11328,0,-100,0,-99,0,11,2,3,14,1,0.00,6.26,-0.30,16777216,1,68
1000,1509661511,22,35.27,-4.72,729.94,0.17,0.00,0.00,28.52,1.57,0.08,-4.33,0.00,6.80,0,0,191.98,0.00,80711183,17472,39.9255,-70.9009,39.9219,-70.9007,39.9219,-70.9007,0.00,0.00,11328,0,-100,0,-99,0,11,2,24,14,1,0.00,3.08,-5.26,16777216,1,68
1000,1509661512,22,35.27,1.92,729.92,0.16,0.00,0.00,28.52,1.52,0.09,-1.59,0.00,-2.65,0,0,189.26,0.00,80712183,17472,39.9255,-70.9009,39.9219,-70.9007,39.9219,-70.9007,0.00,0.00,11328,0,-100,0,-100,0,11,2,3,14,1,0.00,-23.13,2.67,16777216,1,68
1000,1509661513,22,35.27,1.48,729.95,0.04,0.00,0.00,28.52,1.54,0.09,2.21,0.00,-0.51,0,0,191.62,0.00,80713183,17472,39.9256,-70.9010,39.9219,-70.9007,39.9219,-70.9007,0.00,0.00,11328,0,-100,0,-100,0,11,2,3,14,1,0.00,22.83,2.91,16777216,1,64
1000,1509661514,22,35.27,-0.93,729.99,0.19,0.00,0.00,28.49,1.76,0.09,-0.24,0.00,4.87,0,0,190.23,0.00,80714183,17472,39.9256,-70.9010,39.9219,-70.9007,39.9219,-70.9007,0.00,0.00,11328,0,-100,0,-99,0,11,2,3,14,1,0.00,-11.13,-7.69,16777216,1,64
1000,1509661515,22,35.27,3.14,729.98,0.12,0.00,0.00,28.49,1.79,0.09,-0.20,0.00,2.79,0,0,190.83,0.00,80715183,17472,39.9256,-70.9010,39.9219,-70.9007,39.9219,-70.9007,0.00,0.00,11328,0,-100,0,-99,0,11,2,3,14,1,0.00,-8.69,5.10,16777216,1,64
1000,1509661516,22,35.27,-1.48,729.82,-0.01,0.00,0.00,28.52,1.75,0.09,-0.20,0.00,1.46,0,0,195.61,0.00,80716183,17472,39.9256,-70.9010,39.9219,-70.9007,39.9219,-70.9007,0.00,0.00,11328,0,-100,0,-100,0,11,2,3,14,1,0.00,13.54,-3.74,16777216,1,64
1000,1509661517,22,35.27,-0.39,730.02,0.20,0.00,0.00,28.52,1.66,0.09,-0.30,0.00,4.04,0,0,189.62,0.00,80717183,17472,39.9256,-70.9010,39.9219,-70.9007,39.9219,-70.9007,0.00,0.00,11328,0,-100,0,-99,0,11,2,14,14,1,0.00,-5.85,7.47,16777216,1,64
1000,1509661518,22,35.27,0.22,729.89,-0.02,0.00,0.00,28.52,1.67,0.09,-0.03,0.00,-7.07,0,0,192.02,0.00,80718183,17472,39.9256,-70.9010,39.9219,-70.9007,39.9219,-70.9007,0.00,0.00,11328,0,-100,0,-99,0,11,2,3,14,1,0.00,18.95,-4.22,16777216,1,64
1000,1509661519,22,35.27,-0.39,730.00,0.23,0.00,0.00,28.52,1.61,0.09,0.08,0.00,8.49,0,0,189.06,0.00,80719183,17472,39.9256,-70.9010,39.9219,-70.9007,39.9219,-70.9007,0.00,0.00,11328,0,-100,0,-99,0,11,2,2,14,1,0.00,-23.40,3.40,16777216,1,64
1000,1509661520,22,35.28,0.91,729.89,-0.03,3.00,0.00,28.48,2.03,0.09,-1.16,-15.00,-7.54,106,943,190.39,163.09,80720183,17472,39.9256,-70.9010,39.9219,-70.9007,39.9219,-70.9007,0.05,0.00,11328,9,78,100,63,74,11,2,4,14,1,0.00,26.11,-5.87,16777216,1,64
1000,1509661521,22,35.27,-3.19,729.96,0.14,3.00,0.00,28.46,2.78,0.09,-1.08,-15.00,18.19,266,943,192.12,162.95,80721183,17472,39.9256,-70.9010,39.9219,-70.9007,39.9219,-70.9007,0.29,0.00,11328,19,80,100,59,79,11,2,26,14,1,0.00,-10.17,3.26,16777216,1,68
1000,1509661522,22,35.28,0.57,729.98,-0.02,3.00,0.00,28.43,3.37,0.09,-0.38,-15.00,-14.02,393,943,194.17,162.57,80722183,17472,39.9256,-70.9010,39.9219,-70.9007,39.9219,-70.9007,0.59,0.00,11328,29,86,100,63,70,11,2,2,14,1,0.00,-12.62,-5.49,16777216,1,68
1000,1509661523,22,35.27,0.54,729.89,0.05,3.00,0.00,28.31,4.95,0.09,-0.35,-15.00,1.73,599,943,190.39,161.85,80723183,17472,39.9256,-70.9010,39.9219,-70.9007,39.9219,-70.9007,0.97,0.00,11328,39,88,100,60,76,11,2,2,14,1,0.00,0.07,6.40,16777216,1,68
1000,1509661524,22,35.28,1.14,729.95,0.01,3.00,0.00,28.28,8.07,0.09,-0.97,-15.00,-0.62,626,943,192.06,160.90,80724183,17472,39.9256,-70.9010,39.9219,-70.9007,39.9219,-70.9007,1.29,0.00,11328,49,87,100,64,70,11,2,2,14,1,0.00,4.02,-3.75,16777216,1,68
1000,1509661525,22,35.27,-1.14,729.90,0.15,3.00,0.00,28.10,14.25,0.09,-0.77,-15.00,1.02,665,943,191.30,159.65,80725183,17472,39.9256,-70.9010,39.9219,-70.9007,39.9219,-70.9007,1.46,0.00,11328,59,90,100,63,71,11,2,2,14,1,0.00,-17.49,0.01,16777216,1,68
Message Id[unsigned short|#],Timestamp[unsigned long|epoch],Latitude[double|°],Longitude[double|°],Mission Time[unsigned long|tod],Device Id[signed char|#],Device Count[signed char|#],Depth[float|Meters],Version[signed char|#],Parameter Id 0[float|#],Parameter Id 1[float|#],Parameter Id 2[float|#],Parameter Id 3[float|#],Parameter Id 4[float|#],Parameter Id 5[float|#],Parameter Id 6[float|#],Parameter Id 7[float|#],Parameter Id 8[float|#],Parameter Id 9[float|#]
1118,1509661501,39.9255,-70.9009,80701683,0,1,0.19,0,700.00,54.00,0.36,695.00,133.00,1.02,460.00,45.00,-0.36,0.00
1118,1509661502,39.9255,-70.9009,80702799,0,1,0.16,0,700.00,54.00,0.36,695.00,129.00,0.97,460.00,48.00,-0.09,-0.00
1118,1509661503,39.9255,-70.9009,80703933,0,1,0.16,0,700.00,54.00,0.36,695.00,125.00,0.92,460.00,49.00,0.00,-1.50
1118,1509661505,39.9255,-70.9009,80705049,0,1,0.14,0,700.00,53.00,0.34,695.00,128.00,0.96,460.00,51.00,0.18,0.00
1118,1509661506,39.9255,-70.9009,80706183,0,1,0.15,0,700.00,53.00,0.34,695.00,130.00,0.98,460.00,47.00,-0.18,0.00
1118,1509661507,39.9255,-70.9009,80707299,0,1,0.25,0,700.00,54.00,0.36,695.00,130.00,0.98,460.00,48.00,-0.09,0.00
1118,1509661508,39.9255,-70.9009,80708433,0,1,0.10,0,700.00,54.00,0.36,695.00,124.00,0.91,460.00,50.00,0.09,0.00
1118,1509661509,39.9255,-70.9009,80709549,0,1,0.18,0,700.00,53.00,0.34,695.00,134.00,1.03,460.00,48.00,-0.09,0.00
1118,1509661510,39.9255,-70.9009,80710683,0,1,0.14,0,700.00,53.00,0.34,695.00,135.00,1.04,460.00,47.00,-0.18,0.00
1118,1509661511,39.9255,-70.9009,80711799,0,1,0.17,0,700.00,53.00,0.34,695.00,127.00,0.95,460.00,49.00,0.00,0.00
1118,1509661512,39.9256,-70.9010,80712933,0,1,0.02,0,700.00,55.00,0.39,695.00,129.00,0.97,460.00,50.00,0.09,0.00
1118,1509661514,39.9256,-70.9010,80714049,0,1,0.22,0,700.00,53.00,0.34,695.00,129.00,0.97,460.00,48.00,-0.09,0.00
1118,1509661515,39.9256,-70.9010,80715183,0,1,0.12,0,700.00,53.00,0.34,695.00,133.00,1.02,460.00,54.00,0.45,0.00
1118,1509661516,39.9256,-70.9010,80716299,0,1,-0.01,0,700.00,53.00,0.34,695.00,132.00,1.01,460.00,50.00,0.09,0.00
1118,1509661517,39.9256,-70.9010,80717433,0,1,0.09,0,700.00,54.00,0.36,695.00,129.00,0.97,460.00,49.00,0.00,0.00
1118,1509661518,39.9256,-70.9010,80718549,0,1,0.15,0,700.00,54.00,0.36,695.00,130.00,0.98,460.00,47.00,-0.18,0.00
1118,1509661519,39.9256,-70.9010,80719683,0,1,0.07,0,700.00,54.00,0.36,695.00,126.00,0.94,460.00,49.00,0.00,0.00
1118,1509661520,39.9256,-70.9010,80720799,0,1,0.06,0,700.00,53.00,0.34,695.00,132.00,1.01,460.00,42.00,-0.64,0.00
1118,1509661521,39.9256,-70.9010,80721933,0,1,0.07,0,700.00,54.00,0.36,695.00,132.00,1.01,460.00,51.00,0.18,0.00
1118,1509661523,39.9256,-70.9010,80723049,0,1,-0.00,0,700.00,54.00,0.36,695.00,134.00,1.03,460.00,49.00,0.00,0.00
1118,1509661524,39.9256,-70.9010,80724183,0,1,0.01,0,700.00,54.00,0.36,695.00,128.00,0.96,460.00,49.00,0.00,768.08
1118,1509661525,39.9255,-70.9010,80725299,0,1,0.15,0,700.00,53.00,0.34,695.00,124.00,0.91,460.00,51.00,0.18,0.00
1118,1509661526,39.9255,-70.9010,80726433,0,1,0.05,0,700.00,53.00,0.34,695.00,124.00,0.91,460.00,49.00,0.00,73880749950582619000000000000000.00
1118,1509661527,39.9255,-70.9010,80727549,0,1,-0.02,0,700.00,55.00,0.39,695.00,121.00,0.88,460.00,49.00,0.00,0.00
1118,1509661528,39.9255,-70.9010,80728683,0,1,-0.02,0,700.00,55.00,0.39,695.00,121.00,0.88,460.00,48.00,-0.09,0.00
